<?xml version="1.0" encoding="UTF-8" standalone="no"?><xml xmlns:base="PWS_Base" xmlns:ext="PWS_Exts" xmlns:xsi="http://www.w3.org/2001/XMLSchema-instance" xsi:schemaLocation="PWS_Base https://raw.githubusercontent.com/super-cow-powers/sweng_21_PWS/master/PWS.xsd PWS_Exts https://raw.githubusercontent.com/super-cow-powers/sweng_21_PWS/master/my_exts.xsd">
    <!--Price range from 0 (free) to 3 (expensive)-->
    <!--Nightclubs-->
    <!--
    there's also some weird shape and text attributes that we can use if need see this example xml from david's schema (https://github.com/super-cow-powers/sweng_21_PWS/blob/master/example_doc.xml)

    also i didnt realise that the "source" attribute was actually "include_source" so i just made a quick switch
    and there was some other silly mistakes i made formatting wise... so ive just cleaned them up now, sorry!

    hopefully this should be everything we need from the schema for now? i guess we also need the alt text option, but will have to change the extra schema and im unsure of how to do that atm aha
    -->
    <!--

    here are the baselines for the other things, playable for some weird reason handles both audio and video:

    <base:image include_source="pic.png" x_orig="40" y_orig="40" z_ind="0" x_size_px="50" y_size_px="50" rot_angle="45" ID="im0" disp_duration_s="40" show_after_s="0" />
    <base:playable indlude_source="vid.mp4 or sound.mp3" display_player="true" seek_offset="10" autoplay="false" loop="false" type="video or audio"</base:playable>
    -->


    <base:page ID="001" category="nightclub" lat="53.9587775" lon="-1.0867884" price="2" title="Flares York">
        <base:shape type="textbox" x_end="0" y_end="0">
            <base:text include_source="Venues/Clubs/Flares_York/Flares_York_text.txt"/>
        </base:shape>
    </base:page>
    <base:page ID="002" category="nightclub" lat="53.9592577" lon="-1.0872826" price="2" title="Revolution York">
        <base:shape type="textbox" x_end="0" y_end="0">
            <base:text include_source="Venues/Clubs/Revolution_York/Revolution_York_text.txt"/>
        </base:shape>
    </base:page>
    <base:page ID="003" category="nightclub" lat="53.958187" lon="-1.0895813" price="1" title="Club Salvation">
        <base:shape type="textbox" x_end="0" y_end="0">
            <base:text include_source="Venues/Clubs/Club_Salvation/Club_Salvation_text.txt"/>
        </base:shape>
    </base:page>
    <base:page ID="004" category="nightclub" lat="53.9568311" lon="-1.0840847" price="2" title="Kuda">
        <base:shape type="textbox" x_end="0" y_end="0">
            <base:text include_source="Venues/Clubs/Kuda/Kuda_text.txt"/>
        </base:shape>
    </base:page>
    <base:page ID="005" category="nightclub" lat="53.957479" lon="-1.0890425" price="2" title="Popworld York">
        <base:shape type="textbox" x_end="0" y_end="0">
            <base:text include_source="Venues/Clubs/Popworld/Popworld_text.txt"/>
        </base:shape>
    </base:page>

    <!--Bars-->
    <base:page ID="006" category="bar" lat="53.9573196" lon="-1.0843035" title="The Stone Roses Bar">
        <base:shape type="textbox" x_end="0" y_end="0">
            <base:text include_source="Venues/Bars/The_Stone_Roses_Bar/The_Stones_Roses_Bar_text.txt"/>
        </base:shape>
    </base:page>
    <base:page ID="008" category="bar" lat="53.959545" lon="-1.0837168" title="Dusk">
        <base:shape type="textbox" x_end="0" y_end="0">
            <base:text include_source="Venues/Bars/Dusk/Dusk_text.txt"/>
        </base:shape>
    </base:page>
    <base:page ID="009" category="bar" lat="53.9611081" lon="-1.0852717" title="Evil Eye">
        <base:shape type="textbox" x_end="0" y_end="0">
            <base:text include_source="Venues/Bars/Evil_Eye/Evil_Eye_text.txt"/>
        </base:shape>
    </base:page>
    <base:page ID="012" category="bar" lat="53.9593409" lon="-1.0859765" title="All Bar One York">
        <base:shape type="textbox" x_end="0" y_end="0">
            <base:text include_source="Venues/Bars/All_Bar_One_York/All_Bar_One_York_text.txt"/>
        </base:shape>
    </base:page>

    <!--Cafes-->
    <base:page ID="019" category="cafe" lat="53.9593409" lon="-1.0859765" title="The Cat's Whiskers">
        <base:shape type="textbox" x_end="0" y_end="0">
            <base:text include_source="Venues/Cafes/The_Cat's_Whiskers/The_Cat's_Whiskers_text.txt"/>
        </base:shape>
    </base:page>
    <base:page ID="020" category="cafe" lat="53.9577585" lon="-1.0842764" title="Drift-In York">
        <base:shape type="textbox" x_end="0" y_end="0">
            <base:text include_source="Venues/Cafes/Drift-In_York/Drift-In_York_text.txt"/>
        </base:shape>
    </base:page>
    <base:page ID="021" category="cafe" lat="53.9610243" lon="-1.0878127" title="Brew &amp; Brownie">
        <base:shape type="textbox" x_end="0" y_end="0">
            <base:text include_source="Venues/Cafes/Brew_&amp;_Brownie/Brew_&amp;_Brownie_text.txt"/>
        </base:shape>
    </base:page>
    <base:page ID="022" category="cafe" lat="53.9608023" lon="-1.0834307" title="Lucky Days">
        <base:shape type="textbox" x_end="0" y_end="0">
            <base:text include_source="Venues/Cafes/Lucky_Days/Lucky_Days_text.txt"/>
        </base:shape>
    </base:page>

    <!--Restaurants-->
    <base:page ID="042" category="restaurant" lat="53.9571145" lon="-1.078579" title="Il Paradiso Del Cibo">
        <base:shape type="textbox" x_end="0" y_end="0">
            <base:text include_source="Venues/Restaurants/Il_Paradiso_Del_Cibo/Il_Paradiso_Del_Cibo_text.txt"/>
        </base:shape>
    </base:page>
    <base:page ID="044" category="restaurant" lat="53.956867" lon="-1.0796585" title="Spark York C.I.C">
        <base:shape type="textbox" x_end="0" y_end="0">
            <base:text include_source="Venues/Restaurants/Spark_York_CIC/Spark_York_CIC_text.txt"/>
        </base:shape>
    </base:page>
    <base:page ID="045" category="restaurant" lat="53.9584837" lon="-1.0806656" title="Cosy Club">
        <base:shape type="textbox" x_end="0" y_end="0">
            <base:text include_source="Venues/Restaurants/Cosy_Club/Cosy_Club_text.txt"/>
        </base:shape>
    </base:page>
    <base:page ID="046" category="restaurant" lat="53.9579621" lon="-1.081914" title="Cresci Pizzeria">
        <base:shape type="textbox" x_end="0" y_end="0">
            <base:text include_source="Venues/Restaurants/Cresci_Pizzeria/Cresci_Pizzeria_text.txt"/>
        </base:shape>
    </base:page>

    <!--Fast Food Places-->
    <base:page ID="076" category="fast food" lat="53.9586409" lon="-1.0825015" title="Deniz Best Kebab">
        <base:shape type="textbox" x_end="0" y_end="0">
            <base:text include_source="Venues/Fast_Food/Deniz_Best_Kebab/Deniz_Best_Kebab_text.txt"/>
        </base:shape>
    </base:page>
    <base:page ID="077" category="fast food" lat="53.9591728" lon="-1.0827803" title="NaNa Noodle Bar">
        <base:shape type="textbox" x_end="0" y_end="0">
            <base:text include_source="Venues/Fast_Food/NaNa_Noodle_Bar/NaNa_Noodle_Bar_text.txt"/>
        </base:shape>
    </base:page>
    <base:page ID="079" category="fast food" lat="53.9500767" lon="-1.0322042" title="Cecil's Pizza - Grill">
        <base:shape type="textbox" x_end="0" y_end="0">
            <base:text include_source="Venues/Fast_Food/Cecil's_Pizza_&amp;_Grill/Cecil's_Pizza_&amp;_Grill_text.txt"/>
        </base:shape>
    </base:page>
    <base:page ID="083" category="fast food" lat="53.9524207" lon="-1.0733016" title="Efes Pizza">
        <base:shape type="textbox" x_end="0" y_end="0">
            <base:text include_source="Venues/Fast_Food/Efes_Pizza/Efes_Pizza_text.txt"/>
        </base:shape>
    </base:page>

    <!--Pubs-->
    <base:page ID="090" category="pub" lat="53.9452911" lon="-1.0471227" title="Charles XII">

    </base:page>
    <base:page ID="092" category="pub" lat="53.9549563" lon="-1.0713238" title="The Waggon &amp; Horses">

    </base:page>
    <base:page ID="093" category="pub" lat="53.953665" lon="-1.045859" title="The Black Bull">

    </base:page>
    <base:page ID="095" category="pub" lat="53.9549124" lon="-1.0723326" title="The Rook &amp; Gaskill">

    </base:page>

    <!--Green Spaces-->
    <base:page ID="109" category="green space" lat="53.9615475" lon="-1.0903137" title="Museum Gardens">

    </base:page>
    <base:page ID="110" category="green space" lat="53.9487966" lon="-1.083312" title="Rowntree Park">

    </base:page>
    <base:page ID="111" category="green space" lat="53.9630229" lon="-1.0846681" title="Dean's Park">

    </base:page>
    <base:page ID="112" category="green space" lat="53.9438" lon="-1.0839827" title="Millennium Fields">

    </base:page>

    <!--Study Spaces-->
    <base:page ID="124" category="study space" lat="53.9490728" lon="-1.0527472" title="University of York JB Morrell Library">

    </base:page>
    <base:page ID="127" category="study space" lat="53.9478336" lon="-1.0304155" title="Piazza Building">

    </base:page>
    <base:page ID="128" category="study space" lat="53.9472683" lon="-1.0320877" title="The Ron Cooke Hub">

    </base:page>
    <base:page ID="132" category="study space" lat="53.9457663" lon="-1.0577333" title="Roger Kirk Centre">

    </base:page>

    <!--Sightseeing-->
    <base:page ID="137" category="sightseeing" lat="53.9621584" lon="-1.0795979" title="York City Walls">

    </base:page>
    <base:page ID="138" category="sightseeing" lat="53.9623323" lon="-1.0841092" title="York Minster">

    </base:page>
    <base:page ID="140" category="sightseeing" lat="53.9605498" lon="-1.0985547" title="National Railway Museum York">

    </base:page>
    <base:page ID="147" category="sightseeing" lat="53.9575578" lon="-1.0822688" title="The Hole In Wand">

    </base:page>
    <base:page ID="150" category="sightseeing" lat="53.9599946" lon="-1.0825968" title="York's Chocolate Story">

    </base:page>

<base:page ID="2" category="5" lat="3" lon="4" price="5" title="1"/></xml>